[{"sno":"500201001","sna":"YouBike2.0_下庄市場","tot":"20","sbi":"5","sarea":"八里區","mday":"20250606092202","lat":"25.14678","lng":"121.3999","ar":"舊城路21號(前)","sareaen":"Bali Dist","snaen":"YouBike2.0_Shia Juang Market","aren":"No.21, Jiucheng Rd., Bali Dist","bemp":"15","act":"1"},{"sno":"500201002","sna":"YouBike2.0_八里行政中心","tot":"20","sbi":"7","sarea":"八里區","mday":"20250606092403","lat":"25.15397","lng":"121.40721","ar":"十三行路(靠中山路二段路口西南側人行道)","sareaen":"Bali Dist","snaen":"YouBike2.0_Bali District Center","aren":"Shisanhang Rd. & Zhongshan Rd. Intersection (Southwest)","bemp":"13","act":"1"},{"sno":"500201003","sna":"YouBike2.0_八里中庄市場綜合大樓","tot":"28","sbi":"6","sarea":"八里區","mday":"20250606090704","lat":"25.15993","lng":"121.41407","ar":"中山路一段268巷2號(對面汽車停車場)","sareaen":"Bali Dist","snaen":"YouBike2.0_Bali Chung Chuang Market Multi-Purpose Building","aren":"No. 2, Ln. 268, Sec. 1, Zhongshan Rd., Bali Dist.","bemp":"22","act":"1"},{"sno":"500201004","sna":"YouBike2.0_大崁國小","tot":"20","sbi":"7","sarea":"八里區","mday":"20250606090503","lat":"25.16064","lng":"121.41938","ar":"忠八街2號(前)","sareaen":"Bali Dist","snaen":"YouBike2.0_DaKan Elementary School","aren":"No. 2, Zhong 8th St., Bali Dist.","bemp":"13","act":"1"},{"sno":"500201006","sna":"YouBike2.0_龍形停車場","tot":"40","sbi":"12","sarea":"八里區","mday":"20250606090602","lat":"25.13041","lng":"121.4513","ar":"龍米路一段318號(對面停車場)","sareaen":"Bali Dist","snaen":"YouBike2.0_Long Xing Parking Tower","aren":"No. 318, Sec 1, Longmi Rd.(Opposite)","bemp":"28","act":"1"},{"sno":"500201007","sna":"YouBike2.0_十三行博物館","tot":"46","sbi":"13","sarea":"八里區","mday":"20250606090204","lat":"25.157","lng":"121.406","ar":"博物館路183號(對面)","sareaen":"Bali Dist","snaen":"YouBike2.0_Shihsanhang Museum of Archaeology","aren":"No. 183, Museum Rd., Bali Dist.(opposite)","bemp":"33","act":"1"},{"sno":"500201008","sna":"YouBike2.0_八里區民活動中心","tot":"14","sbi":"5","sarea":"八里區","mday":"20250606085703","lat":"25.14933","lng":"121.40126","ar":"中山路二段356巷12號(旁)","sareaen":"Bali Dist","snaen":"YouBike2.0_Bali Activity Center","aren":"No. 12, Ln. 356, Sec. 2, Zhongshan Rd.","bemp":"9","act":"1"},{"sno":"500201009","sna":"YouBike2.0_挖仔尾自然生態保留區","tot":"15","sbi":"2","sarea":"八里區","mday":"20250606063901","lat":"25.16419","lng":"121.41586","ar":"博物館路/挖仔尾街口(西側)","sareaen":"Bali Dist","snaen":"YouBike2.0_Waziwei Ecological Reserves","aren":"Museum Rd. & Waziwei St. Intersection(West)","bemp":"13","act":"1"},{"sno":"500201010","sna":"YouBike2.0_文昌公園","tot":"15","sbi":"4","sarea":"八里區","mday":"20250606085402","lat":"25.15709","lng":"121.41033","ar":"中山路二段/文昌路(東側)","sareaen":"Bali Dist","snaen":"YouBike2.0_Wenchang Park","aren":"Sec. 2, Zhongshan Rd. & Wenchang Rd.(East)","bemp":"11","act":"1"},{"sno":"500201011","sna":"YouBike2.0_八里國小","tot":"15","sbi":"3","sarea":"八里區","mday":"20250606090903","lat":"25.14896","lng":"121.4026","ar":"中山路二段251號(對面)","sareaen":"Bali Dist","snaen":"YouBike2.0_Bali Elementary School","aren":"No. 251, Sec. 2, Zhongshan Rd.(Opposite)","bemp":"12","act":"1"},{"sno":"500201012","sna":"YouBike2.0_八里文化公園(棒球場)","tot":"30","sbi":"11","sarea":"八里區","mday":"20250606094203","lat":"25.16359","lng":"121.41251","ar":"忠孝路與挖仔街口(棒球場公園入口)","sareaen":"Bali Dist","snaen":"YouBike2.0_Bali Wenhua Park","aren":"Zhongxiao & Waziwei street entrance (baseball park)","bemp":"19","act":"1"},{"sno":"500201013","sna":"YouBike2.0_水興公","tot":"15","sbi":"2","sarea":"八里區","mday":"20250606093103","lat":"25.16208","lng":"121.42509","ar":"觀海大道/忠四街(北側)","sareaen":"Bali Dist","snaen":"YouBike2.0_Shuixinggong","aren":"Guanhai Blvd. & Zhong 4th St. (North west)","bemp":"13","act":"1"},{"sno":"500201014","sna":"YouBike2.0_片仔溝公園","tot":"20","sbi":"7","sarea":"八里區","mday":"20250606084601","lat":"25.15020","lng":"121.40581","ar":"中華路二段210號旁","sareaen":"Bali Dist","snaen":"YouBike2.0_Pianzaigou Park","aren":"No. 210, Sec. 2, Zhonghua Rd. (Side)","bemp":"13","act":"1"},{"sno":"500201015","sna":"YouBike2.0_八里福朋喜來登酒店","tot":"18","sbi":"3","sarea":"八里區","mday":"20250606091602","lat":"25.15922","lng":"121.42945","ar":"觀海大道8號","sareaen":"Bali Dist","snaen":"YouBike2.0_Four Points by Sheraton Taipei Bali","aren":"No. 8, Guanhai Blvd.","bemp":"14","act":"1"},{"sno":"500201016","sna":"YouBike2.0_訊塘社區公園","tot":"13","sbi":"5","sarea":"八里區","mday":"20250605205901","lat":"25.14550","lng":"121.39609","ar":"商港路/中山路二段口(東北側)","sareaen":"Bali Dist","snaen":"YouBike2.0_Xuntang Community Park","aren":"Shanggang Rd. & Sec. 2, Zhongshan Rd. (Northeast)","bemp":"8","act":"1"},{"sno":"500201017","sna":"YouBike2.0_商港公園(商港八商港一路口)","tot":"15","sbi":"6","sarea":"八里區","mday":"20250606040503","lat":"25.15039","lng":"121.40026","ar":"商港八路/商港一路口","sareaen":"Bali Dist","snaen":"YouBike2.0_Bali ShangGang Park (Shanggang 8th Rd. Intersection)","aren":"Shanggang 8th Rd. & Shanggang 1st Rd. Intersection","bemp":"9","act":"1"},{"sno":"500201018","sna":"YouBike2.0_商港公園(商港七商港一路口)","tot":"15","sbi":"5","sarea":"八里區","mday":"20250606084004","lat":"25.14916","lng":"121.39841","ar":"商港七路/商港一路口","sareaen":"Bali Dist","snaen":"YouBike2.0_Bali ShangGang Park (Shanggang 7th Rd. Intersection)","aren":"Shanggang 7th Rd. & Shanggang 1st Rd. Intersection","bemp":"10","act":"1"},{"sno":"500201019","sna":"YouBike2.0_渡船頭平面停車場","tot":"33","sbi":"4","sarea":"八里區","mday":"20250606082103","lat":"25.15687","lng":"121.43527","ar":"渡船頭路/龍米路二段口(西北側)","sareaen":"Bali Dist","snaen":"YouBike2.0_Duchuantou Parking Lot","aren":"Duchuantou Rd. & Sec. 2, Longmi Rd. Intersection (Northwest)","bemp":"29","act":"1"},{"sno":"500201020","sna":"YouBike2.0_訊塘廣場(義民中華路口)","tot":"21","sbi":"4","sarea":"八里區","mday":"20250606072402","lat":"25.14256","lng":"121.39564","ar":"義民街/中華路三段口","sareaen":"Bali Dist","snaen":"YouBike2.0_XunTang Square (YiMin St. & ZhongHua Rd. Intersection)","aren":"YiMin St. & Sec. 3, ZhongHua Rd. Intersection","bemp":"17","act":"1"},{"sno":"500201021","sna":"YouBike2.0_八里停五平面停車場","tot":"30","sbi":"10","sarea":"八里區","mday":"20250606081102","lat":"25.15779","lng":"121.41758","ar":"賢三街/大崁二街口(西南側)","sareaen":"Bali Dist","snaen":"YouBike2.0_BaLi 5th Car Park","aren":"Xian 3rd St. & Dakan 2nd St. (Southwest)","bemp":"20","act":"1"},{"sno":"500201022","sna":"YouBike2.0_頂罟公園","tot":"15","sbi":"7","sarea":"八里區","mday":"20250606092703","lat":"25.15330","lng":"121.40413","ar":"商港一路/商港九路(南側)","sareaen":"Bali Dist","snaen":"YouBike2.0_DingGu Park","aren":"ShangGang 1st Rd. & ShangGang 9th Rd. (South)","bemp":"8","act":"1"},{"sno":"500201023","sna":"YouBike2.0_狀元公園","tot":"20","sbi":"7","sarea":"八里區","mday":"20250606083802","lat":"25.15450","lng":"121.41036","ar":"狀元路/文昌五街(西北側)","sareaen":"Bali Dist","snaen":"YouBike2.0_ZhuangYuan Park","aren":"ZhuangYuan Rd. & WenChang 5th St. (Northwest)","bemp":"13","act":"1"},{"sno":"500201024","sna":"YouBike2.0_商港三頂罟二路口","tot":"25","sbi":"2","sarea":"八里區","mday":"20250606091802","lat":"25.15333","lng":"121.40168","ar":"商港三路101號(西北側)","sareaen":"Bali Dist","snaen":"YouBike2.0_ShangGang 3rd Rd. & DingGu 2nd Rd. Intersection","aren":"No. 101, ShangGang 3rd Rd. (Northwest)","bemp":"23","act":"1"},{"sno":"500201025","sna":"YouBike2.0_商港六商港三路口","tot":"15","sbi":"5","sarea":"八里區","mday":"20250606073703","lat":"25.14968","lng":"121.39589","ar":"商港六路/商港三路(西北側)","sareaen":"Bali Dist","snaen":"YouBike2.0_ShangGang 6th Rd. & ShangGang 3rd Rd. Intersection","aren":"ShangGang 6th Rd. & ShangGang 3rd Rd. (Northwest)","bemp":"10","act":"1"},{"sno":"500201026","sna":"YouBike2.0_訊庄埔公園","tot":"15","sbi":"6","sarea":"八里區","mday":"20250605223303","lat":"25.14244","lng":"121.39222","ar":"訊塘二路/添丁街(西北側)","sareaen":"Bali Dist","snaen":"YouBike2.0_Xunzhuangpu Park","aren":"XunTang 2nd Rd. & TianDing St. (Northwest)","bemp":"9","act":"1"},{"sno":"500202001","sna":"YouBike2.0_淺水灣","tot":"48","sbi":"7","sarea":"三芝區","mday":"20250606093603","lat":"25.25232","lng":"121.47131","ar":"北勢子42-11號西側","sareaen":"Sanzhi Dist","snaen":"YouBike2.0_Qianshui Bay","aren":"No. 42-11, Beishizi, Sanzhi Dist.(opposite)","bemp":"39","act":"1"},{"sno":"500202002","sna":"YouBike2.0_三芝國中","tot":"14","sbi":"12","sarea":"三芝區","mday":"20250606073003","lat":"25.25898","lng":"121.50182","ar":"淡金路一段38號","sareaen":"Sanzhi Dist","snaen":"YouBike2.0_Sanzhi Junior High School","aren":"No. 38, Sec. 1, Danjin Rd.","bemp":"1","act":"1"},{"sno":"500202003","sna":"YouBike2.0_櫻花水車公園","tot":"15","sbi":"2","sarea":"三芝區","mday":"20250605165504","lat":"25.25119","lng":"121.50125","ar":"埔頭里埔頭11-5號南側","sareaen":"Sanzhi Dist","snaen":"YouBike2.0_Yinghua Park","aren":"No. 11-5, Putou, Putou Village(South)","bemp":"13","act":"1"},{"sno":"500202004","sna":"YouBike2.0_三芝兒一公園","tot":"15","sbi":"9","sarea":"三芝區","mday":"20250606072702","lat":"25.25719","lng":"121.4994","ar":"長安街79號西側","sareaen":"Sanzhi Dist","snaen":"YouBike2.0_Sanzhi Children Park (No.1)","aren":"No. 79, Chang'an St.(West)","bemp":"6","act":"1"},{"sno":"500202005","sna":"YouBike2.0_三芝區公所","tot":"15","sbi":"6","sarea":"三芝區","mday":"20250606053902","lat":"25.25788","lng":"121.50082","ar":"中山路一段32號","sareaen":"Sanzhi Dist","snaen":"YouBike2.0_Sanzhi District Office","aren":"No. 32, Sec. 1, Zhongshan Rd.","bemp":"9","act":"1"}]